City,Cloudiness,Country,Date,Humidity,Lat,Lng,Max Temp,Wind Speed
Airai,12,TL,1547343103,51,-8.93,125.41,87.93,1.97
Upernavik,32,GL,1547343160,100,72.79,-56.15,-5.77,9.35
Busselton,0,AU,1547343161,86,-33.64,115.35,72.36,18.07
Katsuura,40,JP,1547341200,81,33.93,134.5,42.8,8.05
Znamenskoye,92,RU,1547343164,68,57.13,73.82,2.52,14.27
Gat,0,SN,1547341200,83,14.69,-16.54,71.6,11.41
Yellowknife,20,CA,1547341200,76,62.45,-114.38,-9.41,12.75
Marawi,88,PH,1547343167,70,8.0,124.29,79.11,3.38
Puerto Ayora,40,EC,1547337600,61,-0.74,-90.35,82.4,16.11
Avarua,75,CK,1547341200,74,-21.21,-159.78,84.2,11.41
Hamilton,75,BM,1547340900,82,32.3,-64.78,60.8,12.75
Hobart,0,AU,1547341200,53,-42.88,147.33,69.8,12.75
Paamiut,92,GL,1547343176,97,61.99,-49.67,32.49,23.96
Ushuaia,40,AR,1547341200,75,-54.81,-68.31,42.8,33.33
San Carlos de Bariloche,40,AR,1547341200,71,-41.13,-71.31,53.6,14.99
Norrtalje,0,SE,1547340600,92,59.76,18.7,24.8,3.36
Salalah,0,OM,1547340600,31,17.01,54.1,73.4,9.17
Nanchang,88,CN,1547343187,93,28.68,115.89,46.89,6.62
Lorengau,76,PG,1547343189,99,-2.02,147.27,83.43,13.44
Vaini,0,IN,1547341200,77,15.34,74.49,60.8,4.76
Bontang,8,ID,1547343191,90,0.12,117.47,84.78,8.52
Necochea,76,AR,1547343071,95,-38.55,-58.74,64.08,9.57
Port Alfred,32,ZA,1547343194,92,-33.59,26.89,67.41,7.74
Cape Town,40,ZA,1547341200,93,-33.93,18.42,62.6,8.05
Dikson,76,RU,1547343067,100,73.51,80.55,-14.86,31.9
Amalapuram,20,IN,1547341200,94,16.58,82.0,68.0,8.23
Arraial do Cabo,0,BR,1547343199,90,-22.97,-42.02,76.5,13.27
Coahuayana,12,MX,1547343200,78,18.62,-100.35,62.46,2.48
Thompson,90,CA,1547341200,78,55.74,-97.86,14.0,12.75
Albany,75,US,1547341020,44,42.65,-73.75,19.04,5.82
Nikolskoye,20,RU,1547341200,100,59.7,30.79,15.8,8.95
New Norfolk,0,AU,1547341200,36,-42.78,147.06,69.8,12.75
Tygda,32,RU,1547343206,63,53.11,126.33,-3.7,3.38
Sibolga,68,ID,1547343207,99,1.74,98.78,72.72,2.3
Port Elizabeth,90,US,1547341380,51,39.31,-74.98,32.0,3.76
Lakes Entrance,0,AU,1547343210,73,-37.88,147.99,75.6,14.16
Rikitea,80,PF,1547343067,99,-23.12,-134.97,79.29,13.6
Aswan,24,EG,1547343133,95,24.09,32.9,47.07,2.75
Saint-Philippe,1,CA,1547341200,60,45.36,-73.48,6.8,6.93
Kenitra,8,MA,1547341200,86,34.26,-6.57,41.0,4.5
Lagoa,0,PT,1547341200,57,37.14,-8.45,48.2,8.05
Severodvinsk,90,RU,1547341200,100,64.56,39.82,24.8,4.47
Hermanus,32,ZA,1547343222,81,-34.42,19.24,57.69,9.42
Makat,92,KZ,1547343223,96,47.65,53.35,32.94,7.52
Kapaa,75,US,1547340960,68,22.08,-159.32,80.06,9.17
Tateyama,40,JP,1547341200,65,36.66,137.31,44.6,3.36
Ambilobe,44,MG,1547343156,92,-13.19,49.05,68.31,3.09
Kavieng,48,PG,1547343229,100,-2.57,150.8,82.98,11.77
Goderich,24,CA,1547343230,88,43.74,-81.71,14.85,11.14
Bredasdorp,24,ZA,1547341200,63,-34.53,20.04,64.4,9.17
Punta Arenas,75,CL,1547341200,65,-53.16,-70.91,46.4,28.86
Tuatapere,8,NZ,1547343145,86,-46.13,167.69,58.68,10.87
Sorland,88,NO,1547343235,100,67.67,12.69,33.84,14.34
Bambous Virieux,40,MU,1547341200,78,-20.34,57.76,78.8,11.41
Maceio,40,BR,1547341200,78,-9.67,-35.74,77.0,6.93
East London,88,ZA,1547343238,99,-33.02,27.91,72.81,7.07
Port-Gentil,92,GA,1547343240,100,-0.72,8.78,74.79,6.85
Huarmey,0,PE,1547343242,91,-10.07,-78.15,62.19,4.21
Bekovo,80,RU,1547343243,82,52.46,43.7,11.16,10.92
Pryazha,32,RU,1547341200,79,61.69,33.62,24.8,11.18
Khatanga,64,RU,1547343069,49,71.98,102.47,-29.53,7.11
Scarborough,92,GB,1547340600,81,54.28,-0.41,51.8,19.46
Touros,75,BR,1547341200,83,-5.2,-35.46,78.8,4.7
Machilipatnam,8,IN,1547341200,100,16.18,81.14,68.0,5.5
Koumac,24,NC,1547343250,100,-20.56,164.28,81.45,4.83
Sitka,20,US,1547343252,91,37.17,-99.65,28.26,9.31
Atuona,68,PF,1547343253,100,-9.8,-139.03,80.19,15.84
Mar del Plata,0,AR,1547343254,48,-46.43,-67.52,55.98,5.99
Hengshui,0,CN,1547343257,51,37.73,115.7,40.23,4.38
Bethel,75,US,1547340960,77,60.79,-161.76,-5.08,20.8
Narsaq,80,GL,1547340600,86,60.91,-46.05,30.2,3.36
Pevek,0,RU,1547343098,71,69.7,170.27,-23.68,4.72
Baykit,0,RU,1547343131,0,61.68,96.39,-35.47,3.04
La Rioja,24,AR,1547343263,79,-29.41,-66.86,69.93,4.88
Hithadhoo,8,MV,1547343120,100,-0.6,73.08,81.36,5.21
Ahuimanu,90,US,1547341020,58,21.44,-157.84,82.04,9.17
Okhotsk,0,RU,1547343267,100,59.36,143.24,-2.53,9.08
Bat Khela,0,PK,1547343268,90,34.62,71.97,27.99,3.49
Mayo,75,CA,1547341200,75,63.59,-135.9,-13.01,2.24
Fortuna,0,ES,1547341200,59,38.18,-1.13,37.4,4.7
Hasaki,20,JP,1547341200,61,35.73,140.83,46.4,12.75
Georgetown,75,GY,1547341200,74,6.8,-58.16,78.8,13.87
San Luis,24,AR,1547343052,66,-33.3,-66.34,71.01,5.73
Sampit,56,ID,1547343278,96,-2.54,112.95,84.51,7.56
Bowen,90,AU,1547341200,69,-20.01,148.25,82.4,18.34
Kruisfontein,0,ZA,1547343282,92,-34.0,24.73,60.66,6.89
Kaohsiung,75,TW,1547341200,78,22.62,120.31,71.6,5.82
Saint George,20,GR,1547340600,62,39.45,22.34,32.0,4.7
Troitsko-Pechorsk,76,RU,1547343285,74,62.71,56.19,13.5,8.08
Trat,20,TH,1547341200,100,12.25,102.51,75.2,2.48
Husavik,80,CA,1547343288,93,50.56,-96.99,18.63,10.65
Qaanaaq,0,GL,1547343254,66,77.48,-69.36,-22.87,10.92
Bosaso,68,SO,1547343281,100,11.28,49.18,72.36,6.62
Shorewood,90,US,1547342100,69,43.09,-87.89,32.0,9.17
Eyl,92,SO,1547343293,94,7.98,49.82,74.25,18.7
Kuytun,44,RU,1547343294,55,54.34,101.51,-1.27,8.23
Trapani,20,IT,1547342400,58,38.02,12.54,53.6,12.75
Jamestown,0,AU,1547343008,25,-33.21,138.6,89.46,9.24
Yerbogachen,8,RU,1547343298,55,61.28,108.01,-19.27,4.5
Hilo,1,US,1547340780,62,19.71,-155.08,78.98,17.22
Emerald,0,AU,1547341200,29,-23.53,148.16,89.6,13.87
Sylvan Lake,75,CA,1547341200,79,52.31,-114.09,23.0,2.24
Kampong Thum,36,KH,1547343304,50,12.71,104.89,86.22,11.43
Yarada,8,IN,1547341200,93,17.65,83.27,62.6,3.36
Vila Velha,36,BR,1547343306,100,-3.71,-38.6,81.0,4.72
Humboldt,0,CA,1547343307,68,52.21,-105.12,6.48,3.49
Deputatskiy,48,RU,1547343309,0,69.3,139.9,-31.69,2.82
Norman Wells,40,CA,1547341200,65,65.28,-126.83,-40.01,2.24
Umm Kaddadah,8,SD,1547343312,72,13.6,26.69,50.94,2.75
Marolambo,56,MG,1547343314,89,-20.05,48.13,63.36,2.26
Juliaca,75,PE,1547341200,66,-15.49,-70.13,48.2,9.17
Avera,75,US,1547342100,75,33.19,-82.53,51.8,6.93
Qaqortoq,92,GL,1547340600,86,60.72,-46.03,30.2,3.36
Puerto Leguizamo,36,CO,1547343318,95,-0.19,-74.78,73.8,2.3
Curup,56,ID,1547343324,85,-3.47,102.53,77.22,2.37
Pueblo Nuevo,0,MX,1547343326,65,23.99,-106.96,66.24,3.98
Mareeba,75,AU,1547341200,66,-16.99,145.42,86.0,14.99
Soria,12,ES,1547343328,85,41.76,-2.46,26.82,5.21
Walvis Bay,0,NA,1547341200,87,-22.95,14.51,60.8,5.82
Beringovskiy,32,RU,1547343332,92,63.05,179.32,-7.39,26.42
Aleksandrov Gay,24,RU,1547343333,84,50.14,48.57,14.22,6.89
Neiafu,75,TO,1547341200,70,-18.65,-173.98,84.2,12.75
Vondrozo,92,MG,1547343337,100,-22.82,47.32,71.91,4.09
Talnakh,68,RU,1547343338,46,69.49,88.39,-28.99,14.05
Popondetta,68,PG,1547343340,100,-8.77,148.24,75.78,1.86
Castro,0,CL,1547341200,76,-42.48,-73.76,48.2,5.82
Geraldton,5,CA,1547341200,69,49.72,-86.95,-9.41,3.2
Vestmannaeyjar,36,IS,1547343344,100,63.44,-20.27,34.92,10.92
Kodiak,90,US,1547340900,96,39.95,-94.76,32.0,12.75
Dhidhdhoo,0,MV,1547343346,100,6.88,73.1,81.72,7.9
Haines Junction,36,CA,1547343141,26,60.75,-137.51,-20.35,2.08
Adet,0,ET,1547343350,43,11.26,37.49,40.32,3.04
Nishihara,40,JP,1547341500,45,35.74,139.53,46.4,6.93
Torbay,90,CA,1547341200,74,47.66,-52.73,30.2,10.29
Pachino,0,IT,1547343354,100,36.72,15.09,50.85,18.81
Dubbo,0,AU,1547341200,23,-32.25,148.6,96.8,9.17
Half Moon Bay,40,US,1547340960,57,37.46,-122.43,60.98,9.17
Algiers,40,US,1547342100,90,29.94,-90.04,63.32,3.36
San Pedro,0,AR,1547343363,67,-33.68,-59.66,76.14,14.16
Elko,90,US,1547340960,88,40.83,-115.76,21.92,3.36
Arica,0,CL,1547341200,68,-18.48,-70.32,71.6,2.24
Mandalgovi,8,MN,1547343368,57,45.76,106.27,2.88,9.75
Kununurra,12,AU,1547341200,62,-15.77,128.74,86.0,2.24
Khash,0,IR,1547343371,69,28.22,61.21,22.05,2.53
Qasigiannguit,75,GL,1547340600,43,68.82,-51.19,-5.81,9.17
Aasiaat,56,GL,1547343373,100,68.71,-52.87,7.38,10.42
Nelson Bay,90,AU,1547341200,73,-32.72,152.14,77.0,19.46
Muroto,20,JP,1547341200,37,33.37,134.14,53.6,12.75
Iraray,80,PH,1547343377,95,8.99,118.05,82.62,11.65
Portland,75,US,1547340960,58,45.52,-122.67,50.0,14.99
Mersing,68,MY,1547343379,79,2.43,103.84,83.88,9.31
Vila Franca do Campo,40,PT,1547341200,77,37.72,-25.43,59.0,10.29
Wheatley,88,CA,1547341200,73,42.09,-82.46,28.22,12.75
Kamariotissa,0,GR,1547342400,75,40.48,25.47,41.0,19.46
Bluff,0,AU,1547343384,42,-23.58,149.07,91.98,10.92
Cam Ranh,20,VN,1547341200,65,11.92,109.15,82.4,11.41
Sao Joao da Barra,48,BR,1547343387,96,-21.64,-41.05,79.38,14.67
Ostrovnoy,64,RU,1547343388,90,68.05,39.51,20.34,10.76
Chaykovskaya,75,RU,1547341200,92,58.13,55.54,24.8,8.95
Verkhnyaya Inta,64,RU,1547343390,76,65.99,60.32,7.02,3.49
Wicklow,75,IE,1547343000,81,53.0,-6.42,48.2,23.04
Samarai,24,PG,1547343393,100,-10.62,150.67,82.71,14.05
Dzilam Gonzalez,0,MX,1547343395,65,21.28,-88.93,70.29,5.99
Butaritari,56,KI,1547343396,100,3.07,172.79,82.98,7.56
Laguna,20,MX,1547340060,46,27.52,-110.01,69.8,4.7
Ust-Kuyga,36,RU,1547343400,0,70.0,135.55,-36.1,2.86
Kisaran,48,ID,1547343401,70,2.98,99.62,85.41,3.49
Clyde River,1,CA,1547341200,73,70.47,-68.59,-34.61,4.7
Ajka,75,HU,1547340300,74,47.11,17.56,35.6,4.7
Makakilo City,1,US,1547341020,64,21.35,-158.09,82.04,10.29
Asosa,0,ET,1547343406,54,10.07,34.53,50.94,2.48
Busayra,12,JO,1547343408,84,30.74,35.61,37.62,2.71
Mataura,76,NZ,1547343409,86,-46.19,168.86,59.49,8.75
Slave Lake,90,CA,1547341200,73,55.28,-114.77,23.0,3.36
Barrow,88,AR,1547343141,97,-38.31,-60.23,63.54,10.13
Ulladulla,76,AU,1547343414,92,-35.36,150.48,72.36,11.03
Sioux Lookout,90,CA,1547341200,78,50.1,-91.92,17.6,5.82
Roura,20,GF,1547341200,83,4.73,-52.33,77.0,4.7
Luderitz,12,NA,1547343417,90,-26.65,15.16,59.85,4.76
Tuktoyaktuk,20,CA,1547341200,73,69.44,-133.03,-29.21,9.17
Carnarvon,0,ZA,1547343420,94,-30.97,22.13,50.31,6.22
Lebu,0,ET,1547343421,53,8.96,38.73,30.06,2.98
Nueva Helvecia,0,UY,1547343422,78,-34.28,-57.23,68.67,9.57
Kosh-Agach,56,RU,1547343423,56,49.99,88.66,-10.63,3.6
Soldato-Aleksandrovskoye,40,RU,1547341200,96,44.27,43.76,35.6,20.13
Vostok,0,RU,1547343427,64,46.45,135.83,16.29,3.04
Longyearbyen,20,NO,1547340600,55,78.22,15.63,6.8,16.11
Southampton,48,GB,1547340600,87,50.9,-1.4,48.2,17.22
Ensley,90,US,1547342520,96,33.51,-86.89,50.0,4.7
Caramay,88,PH,1547343432,96,10.18,119.24,81.18,13.56
Guerrero Negro,64,MX,1547343077,95,27.97,-114.04,57.42,4.05
Lulea,20,SE,1547340600,67,65.58,22.15,23.0,3.36
Tiksi,24,RU,1547343435,48,71.64,128.87,-29.44,3.83
Pringsewu,68,ID,1547343437,87,-5.36,104.98,78.75,2.08
Llanes,8,ES,1547343438,88,43.42,-4.75,25.02,2.48
Nabire,48,ID,1547343439,92,-3.36,135.5,77.4,2.59
Celestun,0,MX,1547343441,97,20.87,-90.4,74.61,16.46
Grindavik,40,IS,1547341200,86,63.84,-22.43,33.8,11.41
Komsomolskiy,68,RU,1547343149,82,67.55,63.78,5.22,15.17
Broome,80,GB,1547342760,87,52.47,1.45,51.8,18.34
Charters Towers,20,AU,1547343447,68,-20.07,146.27,85.95,9.91
Tessalit,0,ML,1547343450,30,20.2,1.01,43.02,9.24
Havre-Saint-Pierre,90,CA,1547341200,67,50.23,-63.6,19.4,10.29
Chuy,88,UY,1547343453,90,-33.69,-53.46,70.2,12.03
Ribeira Grande,32,PT,1547343454,97,38.52,-28.7,62.01,21.39
Ankazobe,75,MG,1547341200,100,-18.32,47.12,64.4,3.36
Tchibanga,92,GA,1547343456,100,-2.92,11.0,72.36,3.09
Mahebourg,40,MU,1547341200,78,-20.41,57.7,78.8,11.41
Diego de Almagro,0,CL,1547343462,84,-26.39,-70.05,54.99,1.86
Pisco,0,PE,1547341200,88,-13.71,-76.2,71.6,21.92
Malanje,88,AO,1547343464,78,-9.54,16.35,66.51,7.52
Severo-Kurilsk,80,RU,1547343465,95,50.68,156.12,33.3,17.36
Serenje,92,ZM,1547343467,98,-13.23,30.22,64.89,10.42
Sao Gabriel da Cachoeira,32,BR,1547343468,88,-0.13,-67.09,76.86,2.71
Tarakan,40,ID,1547337600,88,3.3,117.63,78.8,3.36
Souillac,90,FR,1547341200,93,45.6,-0.6,48.2,6.93
Crepy-en-Valois,75,FR,1547341200,93,49.23,2.89,48.2,13.87
Mount Isa,0,AU,1547341200,21,-20.73,139.49,100.4,19.46
Bilibino,20,RU,1547343247,0,68.06,166.44,-27.37,2.3
Beloha,80,MG,1547343475,94,-25.17,45.06,72.63,3.71
Kirakira,92,SB,1547343476,100,-10.46,161.92,80.28,16.96
Nanortalik,92,GL,1547343478,94,60.14,-45.24,30.06,20.38
Alice Springs,0,AU,1547341200,14,-23.7,133.88,102.2,14.99
Krasnyy Chikoy,56,RU,1547343480,72,50.36,108.75,-1.45,2.19
Adrar,0,DZ,1547341200,44,27.87,-0.29,39.2,8.05
Bam,0,IR,1547343482,66,29.11,58.36,24.84,2.53
Alofi,48,NU,1547341200,70,-19.06,-169.92,84.2,13.87
Sokna,75,NO,1547342400,92,60.24,9.92,10.4,1.12
Latung,24,ID,1547343487,85,-8.45,120.42,82.17,4.5
Fez,0,MA,1547341200,69,34.03,-5.02,39.2,5.82
Kaitangata,100,NZ,1547343490,100,-46.28,169.85,56.07,5.06
Tomatlan,24,MX,1547343347,89,19.93,-105.25,68.85,2.3
Abbeville,90,FR,1547341200,81,50.11,1.83,50.0,12.75
Locri,75,IT,1547340900,53,38.24,16.26,50.0,5.82
Flin Flon,75,CA,1547337600,85,54.77,-101.88,14.0,5.82
Hualmay,0,PE,1547343496,95,-11.1,-77.61,64.62,6.29
Turangi,88,NZ,1547343497,72,-39.0,175.93,67.5,9.53
Berlevag,88,NO,1547343489,100,70.86,29.09,27.72,4.09
Pangnirtung,8,CA,1547343499,58,66.15,-65.72,-32.86,3.04
Buloh Kasap,75,MY,1547341200,78,2.55,102.76,80.6,4.7
Leningradskiy,20,RU,1547343502,100,69.38,178.42,-17.65,8.63
Houma,56,CN,1547343503,65,35.63,111.36,31.59,3.38
Camacha,40,PT,1547341200,67,33.08,-16.33,62.6,13.87
Kautokeino,48,NO,1547343505,80,69.01,23.04,16.38,3.83
Chokurdakh,80,RU,1547343507,37,70.62,147.9,-24.22,8.23
Turnov,90,CZ,1547341200,74,50.59,15.16,37.4,14.99
Camopi,92,GF,1547343509,99,3.17,-52.33,72.36,2.3
Apache Junction,1,US,1547342100,31,33.41,-111.55,64.94,7.78
Dingle,48,PH,1547343511,72,11.0,122.67,81.99,14.05
Sibiti,92,CG,1547343513,99,-3.69,13.35,71.73,3.09
Gazli,20,UZ,1547343514,88,40.13,63.45,30.24,12.77
Aklavik,20,CA,1547341200,66,68.22,-135.01,-25.61,3.36
Bone,20,ID,1547341200,88,-5.29,119.42,82.4,4.7
Brae,92,GB,1547342400,93,60.4,-1.35,48.2,26.4
Bourail,88,NC,1547343519,91,-21.57,165.5,78.3,5.1
Molteno,0,ZA,1547343520,66,-31.4,26.36,48.33,3.04
Ballina,92,IE,1547343521,94,54.11,-9.15,48.06,19.15
Cherskiy,44,RU,1547343523,52,68.75,161.3,-17.65,1.81
Craig,90,US,1547341260,83,40.52,-107.55,24.08,5.82
Solnechnyy,36,RU,1547343525,62,50.72,136.64,-7.57,3.31
Lasa,68,CY,1547341200,66,34.92,32.53,55.4,13.87
Fairbanks,75,US,1547340960,61,64.84,-147.72,-23.08,4.32
Selma,1,US,1547340960,59,36.57,-119.61,60.98,4.7
Talcahuano,0,CL,1547341200,87,-36.72,-73.12,60.8,6.93
Meulaboh,56,ID,1547343532,100,4.14,96.13,79.56,4.5
Mocuba,80,MZ,1547343533,93,-16.84,36.99,74.16,5.21
Nhulunbuy,40,AU,1547341560,88,-12.18,136.78,78.8,19.46
Bulawayo,0,ZW,1547343536,88,-20.16,28.59,62.1,3.04
Iqaluit,5,CA,1547341200,67,63.75,-68.52,-25.61,18.34
Nago,40,IT,1547342400,86,45.88,10.89,30.2,1.12
Zykovo,88,RU,1547343541,85,55.24,40.35,15.12,11.1
Ilulissat,75,GL,1547340600,43,69.22,-51.1,-5.81,9.17
Isangel,64,VU,1547343543,100,-19.55,169.27,79.38,4.76
Choix,0,MX,1547343545,84,26.71,-108.33,53.28,1.86
Maxixe,24,MZ,1547343546,98,-23.86,35.35,80.46,5.39
San Quintin,0,PH,1547343547,62,17.54,120.52,79.11,3.53
Libenge,8,CD,1547343548,91,3.65,18.64,73.08,4.21
Vila do Maio,75,CV,1547341200,77,15.13,-23.22,68.0,8.05
Humaita,40,AR,1547341200,88,-24.93,-65.37,69.8,4.7
Cockburn Town,88,TC,1547343416,100,21.46,-71.14,75.15,17.81
Yulara,0,AU,1547341200,10,-25.24,130.99,104.0,13.87
Provideniya,8,RU,1547343557,100,64.42,-173.23,-9.91,20.2
Zhigalovo,32,RU,1547343558,65,54.81,105.15,-5.23,5.5
Nakhon Phanom,0,LA,1547341200,73,17.4,104.79,73.4,5.82
Satun,75,TH,1547341200,74,6.62,100.07,82.4,8.05
Daitari,0,IN,1547343562,78,21.11,85.83,66.69,4.54
Nantucket,1,US,1547340960,41,41.28,-70.1,26.06,5.82
Rome,0,IT,1547342400,88,41.89,12.48,37.4,1.12
Pyinmana,8,MM,1547343566,70,19.74,96.21,72.81,3.2
Huilong,92,CN,1547343567,96,28.89,110.18,38.16,3.09
Edgewater,1,US,1547342100,82,28.99,-80.9,62.96,5.82
Alto Araguaia,12,BR,1547343571,94,-17.32,-53.22,67.86,2.86
Esperance,20,TT,1547341200,73,10.24,-61.45,77.0,5.82
Tasiilaq,36,GL,1547340600,67,65.61,-37.64,17.6,5.82
Togur,32,RU,1547343575,48,58.36,82.83,-16.12,10.58
North Bend,75,US,1547340960,74,43.41,-124.22,55.94,4.7
Santiago,0,CL,1547341200,55,-33.44,-70.65,68.0,11.41
Santa Maria da Vitoria,24,BR,1547343579,84,-13.39,-44.19,71.82,3.2
Maragogi,92,BR,1547343580,100,-9.01,-35.22,73.89,5.1
Lata,92,IN,1547343581,100,30.78,78.62,32.04,1.59
Muzhi,88,RU,1547343583,81,65.4,64.7,5.76,13.94
Cubara,36,CO,1547343585,91,7.0,-72.11,67.32,3.27
Namibe,0,AO,1547343586,100,-15.19,12.15,72.63,8.75
Ullapool,92,GB,1547343587,97,57.9,-5.16,48.51,27.2
Dubovskoye,92,RU,1547343588,79,47.41,42.76,17.1,3.87
Hambantota,40,LK,1547338200,100,6.12,81.12,75.2,8.05
Matara,92,PE,1547343591,95,-13.74,-72.9,45.27,1.74
Prince Rupert,90,CA,1547342160,93,54.32,-130.32,44.6,2.24
La Palma,92,CO,1547343595,79,5.36,-74.39,69.39,1.48
Abu Samrah,44,SY,1547343597,97,35.3,37.18,31.32,6.89
Constitucion,20,MX,1547340240,21,23.99,-104.67,60.8,9.17
Danshui,75,CN,1547341200,88,22.81,114.46,68.0,2.24
Saldanha,0,PT,1547343601,79,41.42,-6.55,18.81,3.09
Nemuro,20,JP,1547341200,62,43.32,145.57,19.4,1.12
Qurbus,90,TN,1547341200,81,36.82,10.57,46.4,10.29
Anadyr,0,RU,1547341200,68,64.73,177.51,-16.61,17.9
Faanui,92,PF,1547343606,100,-16.48,-151.75,82.44,22.32
Nha Trang,20,VN,1547341200,65,12.24,109.19,82.4,11.41
Saint-Augustin,75,FR,1547341200,100,44.83,-0.61,50.0,9.17
Medea,0,DZ,1547341200,86,36.27,2.77,41.0,4.7
Mount Gambier,0,AU,1547341200,44,-37.83,140.78,75.2,12.75
Taksimo,32,RU,1547343613,51,56.36,114.84,-19.63,0.51
Tyazhinskiy,8,RU,1547343614,45,56.11,88.52,-15.13,2.59
Sistranda,92,NO,1547343615,100,63.73,8.83,41.04,23.73
Evensk,0,RU,1547343617,100,61.92,159.24,2.97,6.78
Ancud,48,CL,1547341200,76,-41.87,-73.83,48.2,5.82
Belmonte,0,PT,1547343619,81,40.36,-7.35,28.17,5.88
Sangar,32,RU,1547343620,41,63.92,127.47,-26.83,6.62
Saskylakh,0,RU,1547343622,0,71.97,114.09,-55.9,4.27
Kawalu,0,ID,1547343623,82,-7.38,108.21,77.4,2.37
La Plaine,90,FR,1547341200,86,45.17,5.76,37.4,4.7
Archidona,56,EC,1547343626,94,-0.91,-77.81,56.16,1.52
Bandarbeyla,64,SO,1547343627,100,9.49,50.81,76.95,19.42
Klaksvik,92,FO,1547342400,93,62.23,-6.59,44.6,23.04
Cananeia,64,BR,1547343630,100,-25.01,-47.93,77.31,4.38
Flinders,32,AU,1547343632,75,-34.58,150.85,76.59,6.11
Garissa,0,KE,1547343633,83,-0.46,39.64,71.01,5.73
Curvelo,68,BR,1547343635,92,-18.76,-44.43,68.22,3.71
Salinopolis,92,BR,1547343636,100,-0.61,-47.36,79.11,10.13
Rio Grande,92,BR,1547343637,100,-32.03,-52.1,71.01,15.9
Ust-Nera,12,RU,1547343639,0,64.57,143.24,-43.57,1.97
Tema,40,GH,1547341200,88,5.66,-0.01,82.4,9.17
Petropavlovsk-Kamchatskiy,76,RU,1547341200,54,53.05,158.65,28.4,8.95
Wamba,64,CD,1547343643,79,2.14,27.99,70.65,2.04
Tommot,0,RU,1547343644,68,58.97,126.27,-10.54,2.59
Howard Springs,40,AU,1547341200,79,-12.5,131.05,84.2,8.05
Sept-Iles,75,CA,1547341200,61,50.2,-66.38,15.8,12.75
College,75,US,1547340960,61,64.86,-147.8,-7.07,4.32
Okato,92,NZ,1547343650,91,-39.19,173.88,68.04,13.33
Luena,64,AO,1547343651,86,-11.78,19.91,66.33,1.97
La Ronge,75,CA,1547341200,85,55.1,-105.3,17.6,3.36
Minsk,90,BY,1547341200,92,53.9,27.56,30.2,4.47
Niksar,80,TR,1547343657,64,40.59,36.95,40.14,5.5
Puebla,90,MX,1547340180,87,19.04,-98.2,53.6,4.7
Hanmer Springs,92,NZ,1547343659,47,-42.52,172.83,67.23,8.79
Gizo,0,IL,1547342400,75,31.8,34.94,44.6,4.7
La Reforma,40,GT,1547340000,83,14.8,-91.82,77.0,1.59
Gangakher,0,IN,1547343664,67,18.95,76.75,64.53,4.05
Shubarkuduk,92,KZ,1547343666,90,49.15,56.49,27.9,16.13
Chapais,90,CA,1547341200,84,49.78,-74.86,-2.21,6.93
Soyo,48,AO,1547343670,97,-6.13,12.37,75.33,3.38
Butig,88,PH,1547343672,70,7.74,124.31,79.11,3.38
Luanda,64,AO,1547343673,98,-8.83,13.24,76.59,3.2
Zapolyarnyy,68,RU,1547342400,92,69.43,30.82,28.4,13.87
Halifax,90,CA,1547341200,85,44.65,-63.58,12.2,13.87
Ardabil,0,IR,1547340600,53,38.25,48.3,24.8,16.11
North Battleford,20,CA,1547341200,72,52.78,-108.3,10.4,4.7
Shimonoseki,40,JP,1547341200,81,33.97,130.94,50.0,1.12
Richards Bay,0,ZA,1547343682,99,-28.77,32.06,65.07,2.86
Palamos,0,ES,1547341200,100,41.85,3.13,33.8,6.93
Victoria,75,BN,1547341200,83,5.28,115.24,82.4,6.93
Opuwo,0,NA,1547343439,53,-18.06,13.84,52.65,3.27
Aguimes,0,ES,1547341200,58,27.91,-15.45,59.0,3.36
Abonnema,12,NG,1547341200,94,4.71,6.79,78.8,5.39
Cabo San Lucas,40,MX,1547340180,78,22.89,-109.91,71.6,4.7
Basoko,24,CD,1547343691,82,1.23,23.61,74.16,6.29
Kurumkan,56,RU,1547343692,60,54.33,110.32,-9.82,1.97
Mexico,1,US,1547340960,75,44.56,-70.55,10.04,3.36
Port Macquarie,0,AU,1547341200,42,-31.43,152.91,86.0,8.05
Shaki,8,NG,1547343697,81,7.9,4.77,65.79,3.76
Nome,1,US,1547342100,56,30.04,-94.42,57.38,10.29
Fasa,0,IR,1547341200,69,28.94,53.65,35.6,1.52
Teya,5,MX,1547340120,57,21.05,-89.07,75.2,10.29
Korablino,88,RU,1547343703,82,53.92,40.02,14.31,10.8
Dimapur,0,IN,1547343705,69,25.91,93.73,62.37,2.48
Bubaque,8,GW,1547343706,100,11.28,-15.83,77.49,11.25
Divicani,0,BA,1547341200,92,44.37,17.33,28.4,3.36
Santa Rita Arriba,0,PA,1547341200,69,9.34,-79.78,78.8,5.82
Mmathubudukwane,12,BW,1547343478,73,-24.61,26.43,72.45,6.85
Majene,0,ID,1547343711,95,-3.54,118.97,84.33,3.71
Batemans Bay,76,AU,1547343712,86,-35.71,150.18,71.46,4.72
Ketchikan,90,US,1547340960,92,55.34,-131.65,50.0,5.82
Shannon,75,IE,1547343000,93,52.71,-8.88,48.2,17.22
Launceston,0,AU,1547341200,40,-41.43,147.14,71.6,5.82
Marsh Harbour,24,BS,1547343719,100,26.54,-77.06,74.34,14.61
Mataram,68,ID,1547343720,87,-5.32,105.06,78.75,2.08
Margate,0,AU,1547341200,59,-43.03,147.26,69.8,12.75
Nipawin,1,CA,1547341200,85,53.36,-104.02,12.2,6.93
Yar-Sale,88,RU,1547343724,90,66.83,70.83,5.76,21.65
Brewster,1,US,1547340960,39,41.76,-70.08,26.06,5.82
Mari-Turek,56,RU,1547343728,77,56.79,49.62,6.75,8.01
Lodja,92,CD,1547343730,100,-3.52,23.6,68.67,2.37
Kudahuvadhoo,88,MV,1547343453,100,2.67,72.89,81.99,11.25
Taltal,0,CL,1547343436,98,-25.41,-70.49,53.46,1.81
Pastavy,76,BY,1547343734,91,55.11,26.84,24.57,6.55
Tshela,56,CD,1547343735,95,-4.99,12.94,70.02,2.59
Narrabri,0,AU,1547341200,19,-30.33,149.78,96.8,5.82
Uglovskoye,8,RU,1547343738,67,51.36,80.19,-4.42,8.52
Lavrentiya,8,RU,1547343739,92,65.58,-170.99,-11.08,28.7
Havelock,90,US,1547341860,95,34.88,-76.9,42.98,11.41
Bonavista,76,CA,1547343742,100,48.65,-53.11,25.38,10.36
Great Yarmouth,100,GB,1547342400,87,52.61,1.73,50.0,18.34
Placerville,75,US,1547342100,70,38.73,-120.8,59.0,3.36
Dunda,92,IN,1547343745,100,30.62,78.32,32.04,1.59
Moree,0,AU,1547341200,24,-29.46,149.84,95.0,8.05
Sierra Vista,1,US,1547341080,39,31.55,-110.3,53.96,8.05
Te Anau,32,NZ,1547343749,48,-45.41,167.72,61.74,7.34
Umba,76,RU,1547343750,87,66.69,34.34,20.61,9.91
Yushan,40,CN,1547341200,100,31.68,118.49,33.8,4.5
Ust-Tarka,56,RU,1547343753,67,55.56,75.71,-0.73,13.15
Zabrze,90,PL,1547343000,93,50.31,18.79,33.8,13.87
Weinan,68,CN,1547341200,100,34.5,109.46,23.0,2.24
Madimba,12,CM,1547343756,88,4.42,9.93,77.58,5.32
Nechi,76,CO,1547343759,76,5.59,-75.16,68.67,2.37
Karaton,40,ID,1547341200,78,-6.34,106.1,82.4,2.24
Bagar,8,IN,1547343761,85,28.19,75.5,48.42,3.38
Ialibu,56,PG,1547343762,84,-6.28,143.99,64.98,2.53
Srednekolymsk,80,RU,1547343764,31,67.46,153.71,-20.89,3.49
Kalmunai,88,LK,1547343765,100,7.42,81.82,73.89,5.77
Sun Valley,5,US,1547340660,58,43.7,-114.35,26.6,6.93
Ust-Maya,48,RU,1547343767,44,60.42,134.54,-27.91,3.38
Cidreira,64,BR,1547343769,90,-30.17,-50.22,73.62,13.94
Sola,0,FI,1547342400,85,62.78,29.36,17.6,4.7
Olga,90,US,1547341680,87,34.11,-118.17,60.98,6.93
Kahului,90,US,1547342820,64,20.89,-156.47,80.96,12.75
Adilcevaz,75,TR,1547340600,67,38.8,42.73,19.4,8.05
Kuhdasht,40,IR,1547340600,69,33.53,47.61,37.4,9.17
San Cristobal,90,EC,1547341200,100,-0.39,-78.55,57.2,3.36
Kalakamati,0,BW,1547343777,86,-20.59,27.31,66.96,8.01
Malchevskaya,88,RU,1547343779,94,49.06,40.36,17.91,8.57
Pacific Grove,40,US,1547342400,71,36.62,-121.92,59.0,5.82
Tura,0,IN,1547343782,77,25.52,90.21,61.02,3.49
Khrebtovaya,44,RU,1547343783,57,56.71,104.25,-1.99,8.12
Ceres,92,AR,1547343787,96,-29.88,-61.95,71.91,8.52
Daru,36,SL,1547343788,83,7.99,-10.85,73.62,4.99
Westport,92,IE,1547343789,95,53.8,-9.52,48.69,19.82
Padang,44,ID,1547343791,100,-0.92,100.36,81.27,2.37
Jutai,68,BR,1547343792,96,-1.71,-47.89,74.88,4.76
Saint-Joseph,0,FR,1547343000,74,43.56,6.97,46.4,6.93
Nyurba,56,RU,1547343795,81,63.29,118.35,-12.97,4.61
Dire Dawa,0,ET,1547343796,75,9.59,41.86,38.97,3.09
Goroka,48,PG,1547343797,81,-6.07,145.39,68.31,0.47
Elizabeth City,75,US,1547342940,80,36.3,-76.22,43.34,7.56
Anderson,90,US,1547342100,100,34.51,-82.65,37.94,8.05
Ayan,88,TR,1547343801,98,40.67,33.6,30.24,2.53
Aljezur,0,PT,1547343802,100,37.31,-8.8,47.97,6.06
Ixtapa,40,MX,1547340240,88,20.71,-105.21,77.0,6.93
Ust-Ilimsk,44,RU,1547343805,59,57.96,102.73,-6.94,7.85
Talin,64,AM,1547341200,78,40.38,43.87,19.4,3.36
Bocas del Toro,68,PA,1547343809,100,9.33,-82.25,76.86,3.83
Bloemfontein,0,ZA,1547343602,55,-29.12,26.22,52.11,3.2
Smithers,90,CA,1547341200,100,54.78,-127.17,33.8,2.04
Kaeo,92,NZ,1547343813,51,-35.1,173.78,77.31,9.8
Livingstonia,64,MW,1547343814,100,-10.61,34.11,69.12,3.98
Koshurnikovo,32,RU,1547343816,64,54.3,93.39,-9.82,2.53
Nador,0,MA,1547341200,81,35.17,-2.93,42.8,6.51
Okha,56,RU,1547343818,83,53.59,142.95,11.79,14.79
Batagay,8,RU,1547343820,0,67.65,134.64,-55.27,2.82
Port Hedland,0,AU,1547341200,50,-20.31,118.58,95.0,12.75
Puerto Penasco,20,MX,1547343628,97,31.32,-113.53,61.02,7.0
Yara,88,CU,1547343824,63,20.27,-76.95,76.59,8.86
Faya,0,SA,1547341200,93,18.39,42.45,53.6,8.05
Nikel,88,NO,1547342400,92,69.41,30.21,28.4,13.87
Indian Head,0,CA,1547343829,78,50.53,-103.67,16.11,13.27
Semnan,0,IR,1547341200,68,35.58,53.39,30.2,4.7
Salekhard,76,RU,1547343833,76,66.54,66.62,5.04,13.6
Hofn,92,IS,1547343834,100,64.25,-15.21,36.54,19.64
Puerto Ayacucho,92,CO,1547343836,74,5.66,-67.63,77.76,4.88
Whitehorse,90,CA,1547341200,83,60.72,-135.06,-5.81,2.24
Tiznit,0,MA,1547343839,78,29.7,-9.73,48.06,4.76
Thunder Bay,90,CA,1547341200,85,48.41,-89.26,15.8,6.93
Imeni Poliny Osipenko,64,RU,1547343842,73,52.42,136.49,-10.81,3.83
Robertsport,68,LR,1547343843,100,6.75,-11.37,83.16,9.86
Belomorsk,80,RU,1547343844,83,64.52,34.76,28.71,10.09
Porto Nacional,20,BR,1547343846,80,-10.7,-48.41,75.96,3.53
Ambunti,68,PG,1547343848,87,-4.22,142.82,80.91,3.04
Mahanoro,68,MG,1547343849,97,-19.9,48.8,74.88,2.53
Douentza,0,ML,1547343850,58,15.01,-2.95,51.93,3.83
Ponta do Sol,32,BR,1547343852,88,-20.63,-46.0,67.23,3.38
Nouadhibou,0,MR,1547343853,85,20.93,-17.03,58.68,6.29
Belaya Gora,48,RU,1547343854,0,68.54,146.19,-39.61,3.38
Codrington,40,AU,1547341200,48,-28.95,153.24,89.6,6.93
Christchurch,92,NZ,1547343000,33,-43.53,172.64,75.2,10.29
Manta,12,RO,1547343858,54,45.1,24.1,2.79,2.75
Chimoio,40,MZ,1547341200,94,-19.11,33.48,75.2,4.7
Santa Luzia,0,BR,1547341200,57,-19.77,-43.85,77.0,6.93
Cortland,40,US,1547342100,78,42.6,-76.18,17.96,3.36
Kloulklubed,75,PW,1547344200,78,7.04,134.26,82.4,16.11
Puerto Colombia,40,CO,1547341200,78,10.99,-74.96,78.8,11.41
Stepnyak,8,KZ,1547343865,78,52.83,70.79,6.48,14.12
Kampong Chhnang,24,KH,1547343808,62,12.25,104.67,82.89,4.72
Santa Cruz,90,US,1547342400,76,36.97,-122.03,59.0,5.82
Barabinsk,36,RU,1547343870,75,55.35,78.35,-2.8,12.15
Capreol,20,CA,1547341200,77,46.71,-80.92,-0.41,6.93
Khuzdar,0,PK,1547343873,58,27.8,66.62,27.45,4.27
Coihaique,0,CL,1547341200,53,-45.58,-72.07,51.8,5.82
Wuda,0,CN,1547343875,56,39.5,106.72,17.19,2.82
Tabou,12,CI,1547343876,100,4.42,-7.36,82.26,6.11
Kedougou,0,SN,1547343878,63,12.56,-12.19,62.37,3.2
Tanout,24,NE,1547343879,39,14.97,8.88,59.31,11.43
Eregli,48,TR,1547343880,74,37.51,34.05,17.01,4.32
Sao Filipe,20,CV,1547343881,100,14.9,-24.5,71.28,9.08
Tabuk,20,PH,1547343883,64,17.41,121.44,74.34,2.37
Marrakesh,0,MA,1547341200,39,31.63,-7.99,46.4,2.53
Namatanai,88,PG,1547343885,100,-3.66,152.44,82.89,17.47
Egvekinot,12,RU,1547343887,0,66.32,-179.17,-39.34,4.61
Andilamena,88,MG,1547343888,95,-17.01,48.57,63.9,2.75
Muisne,68,EC,1547343889,77,0.61,-80.02,74.61,2.59
Arlit,0,NE,1547343890,53,18.74,7.39,50.04,8.41
Kentau,0,KZ,1547343894,47,43.52,68.5,1.26,1.86
Rocha,0,UY,1547343895,90,-34.48,-54.34,64.71,8.23
Lima,0,PE,1547341200,83,-12.06,-77.04,73.4,20.8
Leh,64,IN,1547343897,64,34.16,77.58,-7.66,1.7
Batagay-Alyta,20,RU,1547343899,0,67.8,130.41,-36.19,4.05
Digha,0,IN,1547343900,100,21.62,87.51,67.77,4.5
Kasongo-Lunda,92,CD,1547343901,100,-6.48,16.82,67.41,2.59
Poum,0,MK,1547343903,55,41.28,20.71,0.72,1.36
Pareora,92,NZ,1547343904,100,-44.49,171.21,57.78,4.05
Puerto Escondido,20,MX,1547340060,69,15.86,-97.07,82.4,4.05
Muscat,0,OM,1547340600,77,23.6,58.55,68.0,3.36
Betsiamites,40,CA,1547341200,60,48.94,-68.65,10.4,9.17
Udachnyy,24,RU,1547343909,0,66.42,112.4,-32.32,2.48
Hay River,90,CA,1547341200,77,60.82,-115.79,-2.21,10.29
Bendigo,0,AU,1547343912,30,-36.76,144.28,89.55,12.82
Nadym,56,RU,1547343913,73,65.53,72.51,0.63,18.92
Soavinandriana,32,MG,1547343915,89,-19.17,46.74,56.52,2.86
Port Hawkesbury,90,CA,1547341860,78,45.62,-61.36,10.4,12.75
Roanoke Rapids,90,US,1547342520,80,36.46,-77.65,38.84,4.7
Pangkalanbuun,20,ID,1547343918,90,-2.68,111.62,84.69,5.84
Traralgon,0,AU,1547343909,48,-38.19,146.54,79.56,6.85
Mahibadhoo,8,MV,1547343921,100,3.78,72.97,81.99,12.93
Dicabisagan,76,PH,1547343922,100,17.08,122.42,73.26,7.0
Thaba Nchu,0,ZA,1547343923,66,-29.2,26.83,48.96,2.53
Gambela,0,ET,1547343924,69,8.25,34.59,51.12,2.53
Mehamn,80,NO,1547343926,87,71.03,27.85,30.33,11.1
Pacifica,75,US,1547342100,82,37.61,-122.49,59.0,4.7
Baijiantan,48,CN,1547343928,67,45.63,85.18,-9.46,3.49
Kieta,80,PG,1547343929,89,-6.22,155.63,84.51,3.76
Ochakiv,90,UA,1547341200,92,46.61,31.55,28.4,6.71
Olinda,75,EC,1547341200,78,-2.03,-79.75,80.6,3.36
Dawson Creek,1,CA,1547342160,92,55.76,-120.23,28.4,2.24
Gimli,80,CA,1547343642,93,50.63,-96.99,18.63,10.65
